City_ID,City,Lat,Lng,Max Temp,Humidity,Cloudiness,Wind Speed,Country,Date
0,susuman,62.7833,148.1667,-33.43,99,81,0.81,RU,1732324764
1,yellowknife,62.456,-114.3525,3.72,85,75,10.36,CA,1732324505
2,napasar,27.9667,73.55,64.13,30,0,6.71,IN,1732324767
3,mariehamn,60.0973,19.9348,24.66,74,0,5.75,AX,1732324769
4,igarka,67.4667,86.5833,-11.87,100,91,3.11,RU,1732324770
5,kenai,60.5544,-151.2583,21.29,86,0,3.44,US,1732324771
6,laranjeiras do sul,-25.4078,-52.4161,63.82,98,58,4.09,BR,1732324582
7,port-aux-francais,-49.35,70.2167,39.0,80,100,14.76,TF,1732324774
8,invercargill,-46.4,168.35,55.02,67,90,14.0,NZ,1732324775
9,kristiansund,63.1115,7.732,40.12,75,75,11.5,NO,1732324776
10,grantsville,40.5999,-112.4644,37.38,81,0,4.61,US,1732324777
11,geraldton,-28.7667,114.6,77.41,38,0,10.67,AU,1732324779
12,hermanus,-34.4187,19.2345,58.8,85,100,6.71,ZA,1732324780
13,udachny,66.4167,112.4,-0.62,97,100,11.01,RU,1732324781
14,ghat,24.9647,10.1728,64.31,33,12,7.29,LY,1732324785
15,kingston,17.997,-76.7936,81.55,78,20,2.3,JM,1732324724
16,grytviken,-54.2811,-36.5092,42.62,68,94,1.63,GS,1732324788
17,nuuk,64.1835,-51.7216,23.61,58,13,18.41,GL,1732324789
18,alegrete,-29.7831,-55.7919,66.92,85,8,12.53,BR,1732324565
19,punta arenas,-53.15,-70.9167,48.31,81,40,6.91,CL,1732324578
20,polyarnyy,69.1989,33.4478,28.22,76,47,32.3,RU,1732324793
21,pimentel,-6.8367,-79.9342,66.49,88,0,17.27,PE,1732324794
22,sefwi wiawso,6.2044,-2.4886,74.32,82,92,1.07,GH,1732324795
23,cadale,2.7603,46.3222,80.13,79,100,10.54,SO,1732324797
24,gantang,26.92,119.6333,60.24,68,46,2.24,CN,1732324798
25,talnakh,69.4865,88.3972,-19.32,98,99,10.02,RU,1732324799
26,arraial do cabo,-22.9661,-42.0278,67.96,94,100,8.05,BR,1732324800
27,utrik,11.2278,169.8474,82.94,79,30,20.29,MH,1732324801
28,coquimbo,-29.9533,-71.3436,58.73,88,0,3.44,CL,1732324803
29,lebu,-37.6167,-73.65,55.78,96,48,5.41,CL,1732324804
30,puerto natales,-51.7236,-72.4875,44.51,87,100,10.13,CL,1732324806
31,tsarevo,42.1667,27.85,64.56,69,100,23.15,BG,1732324807
32,khark,29.2614,50.3306,74.89,50,0,21.59,IR,1732324808
33,geita,-2.8708,32.2341,62.74,94,22,0.6,TZ,1732324810
34,edinburgh of the seven seas,-37.0676,-12.3116,53.26,75,91,18.9,SH,1732324811
35,klyuchi,52.2667,79.1667,10.89,96,100,2.48,RU,1732324812
36,olonkinbyen,70.9221,-8.7187,23.5,61,95,12.35,SJ,1732324815
37,fale old settlement,-9.3852,-171.2468,83.82,74,100,16.2,TK,1732324817
38,argo,37.6333,22.7333,62.35,75,99,7.16,GR,1732324819
39,stanley,54.868,-1.6985,30.52,94,100,1.14,GB,1732324821
40,kununurra,-15.7667,128.7333,94.98,52,9,5.75,AU,1732324602
41,hoa binh,20.8133,105.3383,68.7,70,47,1.9,VN,1732324824
42,papatowai,-46.5619,169.4708,52.48,57,100,13.51,NZ,1732324825
43,lycksele,64.5954,18.6735,12.07,85,61,4.61,SE,1732324826
44,adamstown,-25.066,-130.1015,73.74,85,100,15.93,PN,1732324828
45,olinda,-8.0089,-34.8553,80.33,74,75,10.36,BR,1732324829
46,longyearbyen,78.2186,15.6401,17.44,67,40,10.36,SJ,1732324830
47,sonoita,31.85,-112.8333,65.26,14,80,2.95,MX,1732324831
48,tsiroanomandidy,-18.7667,46.0333,71.47,78,26,0.96,MG,1732324833
49,noyabrsk,63.1994,75.4507,15.39,94,100,19.89,RU,1732324834
50,whitehorse,60.7161,-135.0538,9.37,85,40,11.5,CA,1732324818
51,wailua homesteads,22.0669,-159.378,78.13,64,0,8.05,US,1732324836
52,amga,60.8953,131.9608,-14.1,100,62,2.39,RU,1732324837
53,afua,-0.1567,-50.3867,78.91,76,0,7.07,BR,1732324839
54,kapa'a,22.0752,-159.319,79.48,64,0,8.05,US,1732324840
55,ushuaia,-54.8,-68.3,46.06,87,75,13.8,AR,1732324841
56,bodo,67.28,14.405,30.24,100,100,27.63,NO,1732324842
57,bethel,41.3712,-73.414,40.91,88,100,4.61,US,1732324553
58,jamestown,42.097,-79.2353,40.01,97,100,11.5,US,1732324845
59,mahina,-17.5065,-149.489,87.57,62,75,11.5,PF,1732324846
60,tazacorte,28.629,-17.9293,69.15,48,0,8.01,ES,1732324849
61,tuburan,6.6439,122.2736,83.57,70,98,1.61,PH,1732324850
62,port alfred,-33.5906,26.891,68.18,86,58,3.0,ZA,1732324852
63,stornoway,58.2093,-6.3865,40.96,90,75,16.11,GB,1732324853
64,lubuklinggau,-3.3,102.8667,73.69,97,100,1.16,ID,1732324814
65,thompson,55.7435,-97.8558,17.76,86,100,8.05,CA,1732324857
66,baotou,40.6522,109.8222,35.85,51,75,7.02,CN,1732324858
67,ilulissat,69.2167,-51.1,5.65,65,85,8.1,GL,1732324859
68,puerto baquerizo moreno,-0.9,-89.6,72.21,75,20,13.62,EC,1732324860
69,malanje,-9.5402,16.341,65.03,98,100,4.54,AO,1732324861
70,badger,64.8,-147.5333,12.36,90,75,0.0,US,1732324863
71,port lincoln,-34.7333,135.8667,68.97,68,100,8.57,AU,1732324864
72,kalmunai,7.4167,81.8167,76.66,89,59,7.29,LK,1732324865
73,hasaki,35.7333,140.8333,55.24,41,99,17.85,JP,1732324867
74,santa maria,-29.6842,-53.8069,63.86,95,45,8.03,BR,1732324805
75,perry,37.2506,-83.1999,39.31,90,100,11.95,US,1732324870
76,palikir - national government center,6.9248,158.1611,79.65,94,100,4.61,FM,1732324871
77,waingapu,-9.6567,120.2641,88.5,58,88,10.92,ID,1732324872
78,isola di capo rizzuto,38.96,17.0933,57.18,64,1,6.51,IT,1732324873
79,tiksi,71.6872,128.8694,0.27,97,100,0.56,RU,1732324876
80,tabou,4.423,-7.3528,78.03,86,67,7.49,CI,1732324878
81,constitucion,-35.3333,-72.4167,54.82,90,0,8.34,CL,1732324879
82,haiku-pauwela,20.9219,-156.3051,78.82,68,40,18.01,US,1732324880
83,cuamba,-14.8031,36.5372,70.23,83,36,2.89,MZ,1732324881
84,waitangi,-43.9535,-176.5597,54.82,75,29,13.0,NZ,1732324883
85,la passe,45.5549,-0.8967,44.06,80,66,12.91,FR,1732324884
86,baker,30.5882,-91.1682,55.81,70,0,6.91,US,1732324887
87,pisco,-13.7,-76.2167,66.25,88,0,13.8,PE,1732324733
88,aasiaat,68.7098,-52.8699,3.29,82,80,11.59,GL,1732324889
89,saldanha,-33.0117,17.9442,53.65,88,94,4.81,ZA,1732324599
90,praia da vitoria,38.7333,-27.0667,68.25,83,75,18.05,PT,1732324892
91,blackmans bay,-43.0167,147.3167,77.13,60,100,5.66,AU,1732324893
92,mhamid,29.82,-5.72,67.77,29,0,7.27,MA,1732324894
93,albany,42.6001,-73.9662,34.63,94,100,4.03,US,1732324817
94,qujing,25.4833,103.7833,49.84,84,99,8.25,CN,1732324897
95,vetluzhskiy,58.3902,45.4654,30.54,78,100,9.46,RU,1732324898
96,constantia,44.1833,28.65,41.7,79,100,32.19,RO,1732324811
97,port mathurin,-19.6833,63.4167,76.32,79,21,17.54,MU,1732324901
98,tralee,52.2704,-9.7026,48.31,91,100,29.57,IE,1732324902
99,fort bragg,35.139,-79.006,44.91,53,0,6.91,US,1732324777
100,tapiramuta,-11.8472,-40.7914,73.62,63,100,3.09,BR,1732324905
101,aykhal,66.0,111.5,-3.68,97,100,10.56,RU,1732324907
102,qaqortoq,60.7167,-46.0333,12.16,63,13,8.46,GL,1732324908
103,ta`u,-14.2336,-169.5144,80.94,82,100,19.86,AS,1732324910
104,zhicheng,30.2956,111.5047,52.23,68,100,2.37,CN,1732324911
105,queenstown,-31.8976,26.8753,64.4,80,99,4.72,ZA,1732324815
106,varadero,23.1536,-81.2514,70.56,68,31,13.53,CU,1732324915
107,kalemie,-5.9475,29.1947,69.58,89,88,3.6,CD,1732324917
108,manakara,-22.1333,48.0167,71.13,94,73,4.61,MG,1732324919
109,sitka,57.0531,-135.33,40.89,38,0,4.61,US,1732324853
110,sinabang,2.4803,96.3801,77.04,94,100,5.7,ID,1732324694
111,atafu village,-8.5421,-172.5159,83.97,73,27,16.42,TK,1732324923
112,vorgashor,67.5833,63.95,15.19,90,81,10.58,RU,1732324924
113,buncrana,55.1333,-7.45,36.66,86,100,15.17,IE,1732324925
114,newman,37.3138,-121.0208,62.06,63,100,3.0,US,1732324927
115,dharchula,29.85,80.5333,39.09,47,3,5.53,IN,1732324928
116,magadan,59.5667,150.8,18.48,79,20,4.92,RU,1732324930
117,uturoa,-16.7333,-151.4333,79.56,82,8,12.28,PF,1732324932
118,chonchi,-42.6128,-73.8092,55.11,87,98,3.96,CL,1732324933
119,castillos,-34.1667,-53.8333,62.96,87,0,8.01,UY,1732324935
120,vuktyl,63.8567,57.3094,33.73,94,100,21.03,RU,1732324936
121,vilyuchinsk,52.9306,158.4028,28.67,77,14,5.3,RU,1732324938
122,ribeira grande,38.5167,-28.7,69.78,92,100,23.0,PT,1732324940
123,plastun,44.7561,136.2939,28.17,48,0,10.04,RU,1732324941
124,enewetak,11.3474,162.3373,83.14,80,6,19.55,MH,1732324943
125,acapulco de juarez,16.8634,-99.8901,84.02,79,75,3.44,MX,1732324944
126,puerto cabezas,14.0351,-83.3888,75.04,78,95,10.58,NI,1732324945
127,ardakan,32.31,54.0175,52.65,42,6,4.05,IR,1732324947
128,ramnagar,29.4,79.1167,56.05,60,1,4.76,IN,1732324948
129,akureyri,65.6835,-18.0878,28.33,86,100,3.44,IS,1732324949
130,cockburn town,21.4612,-71.1419,80.29,76,16,10.69,TC,1732324952
131,nar'yan-mar,67.6713,53.087,31.78,97,100,18.7,RU,1732324953
132,jinchang,38.4953,102.1739,33.69,50,100,1.1,CN,1732324690
133,kimbe,-5.5502,150.1429,80.29,85,100,2.84,PG,1732324956
134,iquique,-20.2208,-70.1431,64.99,86,96,5.26,CL,1732324719
135,walvis bay,-22.9575,14.5053,59.95,88,0,5.75,NA,1732324958
136,visaginas,55.6,26.4167,26.76,89,6,3.89,LT,1732324959
137,high river,50.5834,-113.8687,12.31,96,100,8.59,CA,1732324961
138,quellon,-43.1167,-73.6167,53.26,85,100,6.98,CL,1732324962
139,la ceiba,15.7597,-86.7822,71.42,94,75,0.0,HN,1732324839
140,st. john's,47.5649,-52.7093,41.14,98,100,12.66,CA,1732324760
141,santa fe de antioquia,6.5569,-75.8281,72.66,96,100,0.6,CO,1732324967
142,nyandoma,61.669,40.1991,29.05,86,100,12.8,RU,1732324969
143,carutapera,-1.195,-46.02,78.03,77,0,7.4,BR,1732324971
144,qarazhal,48.0078,70.7903,19.56,81,5,7.96,KZ,1732324972
145,iqaluit,63.7506,-68.5145,24.53,93,100,8.05,CA,1732324973
146,lata,40.1629,-8.3327,51.76,95,99,3.6,PT,1732324974
147,yemva,62.59,50.8594,30.45,78,100,13.67,RU,1732324975
148,zhangjiakou,40.81,114.8794,33.06,69,83,5.53,CN,1732324977
149,weno,7.4515,151.8468,87.75,79,100,9.22,FM,1732324980
150,alice springs,-23.7,133.8833,92.75,21,100,6.91,AU,1732324981
151,avarua,-21.2078,-159.775,80.65,65,100,12.66,CK,1732324983
152,oistins,13.0667,-59.5333,82.49,89,40,16.11,BB,1732324984
153,valderice,38.0401,12.6151,58.1,59,20,16.11,IT,1732324985
154,carnarvon,-24.8667,113.6333,79.45,38,0,18.41,AU,1732324987
155,college,64.8569,-147.8028,12.45,89,75,0.0,US,1732324988
156,bolobo,-2.1667,16.2333,70.88,96,30,2.51,CD,1732324991
157,mirny,62.5353,113.9611,22.19,96,100,7.27,RU,1732324993
158,margaret river,-33.95,115.0667,65.43,47,0,1.81,AU,1732324808
159,margate,51.3813,1.3862,34.7,82,100,10.38,GB,1732324995
160,kodiak,57.79,-152.4072,45.91,39,0,19.57,US,1732324997
161,bilibino,68.0546,166.4372,-10.68,96,94,3.49,RU,1732324998
162,anna regina,7.2644,-58.5077,81.27,79,36,8.79,GY,1732325000
163,balqash,46.8481,74.995,26.24,71,2,16.78,KZ,1732325001
164,tavda,58.0425,65.2726,28.31,75,43,9.37,RU,1732324782
165,el calafate,-50.3408,-72.2768,51.22,61,0,22.06,AR,1732324821
166,sterling,39.0062,-77.4286,43.43,80,100,25.32,US,1732324933
167,lumberton,34.6182,-79.0086,44.58,53,0,5.75,US,1732325006
168,luderitz,-26.6481,15.1594,59.2,88,0,14.65,NA,1732325007
169,bredasdorp,-34.5322,20.0403,59.11,83,100,4.85,ZA,1732325009
170,hobyo,5.3505,48.5268,79.3,74,89,15.35,SO,1732325011
171,alto barinas,8.5931,-70.2261,75.49,89,96,5.14,VE,1732325013
172,ust-nera,64.5667,143.2,-25.65,97,53,3.85,RU,1732325015
173,hawaiian paradise park,19.5933,-154.9731,77.74,79,100,5.75,US,1732325016
174,kuanda,56.3161,116.0806,2.08,97,100,1.25,RU,1732325017
175,midvagur,62.0511,-7.1939,25.63,80,26,2.3,FO,1732325019
176,emporia,38.4039,-96.1817,43.0,61,0,4.61,US,1732324800
177,west island,-12.1568,96.8225,80.58,94,75,13.8,CC,1732325023
178,adiake,5.2863,-3.304,77.74,86,8,3.27,CI,1732325026
179,luanda,-8.8368,13.2343,75.2,94,75,2.3,AO,1732325027
180,ebon,4.582,168.6964,78.15,91,100,7.14,MH,1732325029
181,mount gambier,-37.8333,140.7667,77.81,39,100,7.0,AU,1732325030
182,port blair,11.6667,92.75,82.44,83,40,9.22,IN,1732325031
183,guasdualito,7.2424,-70.7324,75.16,94,75,0.0,VE,1732324821
184,cacequi,-29.8836,-54.825,66.2,86,41,12.48,BR,1732325034
185,san benito,36.6166,-121.0844,54.5,68,100,7.81,US,1732325036
186,poykovskiy,61.2333,73.3333,21.49,100,75,11.18,RU,1732325028
187,ferryhill,54.6833,-1.55,32.88,86,100,4.85,GB,1732325038
188,howard springs,-12.497,131.047,91.98,74,25,4.5,AU,1732325040
189,isafjordur,66.0755,-23.124,25.2,83,100,16.17,IS,1732325041
190,kruisfontein,-34.0033,24.7314,61.86,85,34,12.8,ZA,1732325042
191,pangoa,-12.1167,-73.0,69.49,87,51,2.64,PE,1732324993
192,murun-kuren,49.6342,100.1625,12.52,81,100,4.92,MN,1732325045
193,chernyshevsk,52.5243,117.0174,5.43,97,100,2.01,RU,1732325046
194,saipan,15.1355,145.701,88.5,80,0,16.11,MP,1732325047
195,cidreira,-30.1811,-50.2056,66.0,91,100,19.71,BR,1732325049
196,howrah,22.5892,88.3103,68.0,73,40,0.0,IN,1732325050
197,dakhla,23.6848,-15.958,66.22,100,80,0.0,EH,1732325051
198,oriximina,-1.7656,-55.8661,81.23,65,100,5.03,BR,1732325052
199,conceicao da barra,-18.5933,-39.7322,73.27,97,100,7.63,BR,1732325053
200,neya,58.2972,43.8681,30.54,81,100,10.2,RU,1732325055
201,galich,58.3797,42.3475,31.35,75,100,11.21,RU,1732325058
202,merced,37.1666,-120.7516,64.63,48,100,1.92,US,1732325059
203,dombarovskiy,50.7587,59.5386,23.67,83,100,10.07,RU,1732325060
204,freetown,8.484,-13.2299,80.24,79,4,6.71,SL,1732325063
205,hammerfest,70.6634,23.6821,36.05,87,75,14.97,NO,1732324855
206,kone,-21.0595,164.8658,85.55,52,99,3.56,NC,1732325065
207,bereznik,62.8551,42.7072,31.24,79,100,11.95,RU,1732325067
208,prado,-17.3411,-39.2208,74.7,95,100,5.28,BR,1732325069
209,senillosa,-39.0,-68.4167,74.98,30,100,29.37,AR,1732325072
210,remire-montjoly,4.9167,-52.2667,78.84,94,40,2.3,GF,1732325074
211,playa del ingles,27.7567,-15.5787,76.39,30,0,1.01,ES,1732325077
212,san pedro,14.35,121.0167,86.32,76,20,8.99,PH,1732325078
213,hassi messaoud,31.6804,6.0729,55.26,47,0,3.44,DZ,1732325081
214,kitakata,37.65,139.8667,41.29,98,99,6.46,JP,1732325082
215,nova sintra,14.8667,-24.7167,78.73,75,86,8.7,CV,1732325084
216,awjilah,29.1081,21.2869,64.98,40,7,6.17,LY,1732325086
217,san carlos,9.6612,-68.5827,78.35,80,91,4.72,VE,1732325087
218,suva,-18.1416,178.4415,85.48,70,75,14.97,FJ,1732325089
219,hamilton,39.1834,-84.5333,44.1,89,100,16.11,US,1732324873
220,ntoum,0.3833,9.7833,74.43,96,81,2.01,GA,1732325091
221,port elizabeth,-33.918,25.5701,67.32,86,0,13.8,ZA,1732325092
222,san antonio de pale,-1.4014,5.6325,78.46,84,48,8.48,GQ,1732325094
223,gizo,-8.103,156.8419,85.24,66,60,2.84,SB,1732325095
224,gonzalez,30.5816,-87.2914,52.79,69,0,3.44,US,1732325096
225,anadyr,64.75,177.4833,27.1,86,100,17.9,RU,1732325097
226,rock springs,41.5875,-109.2029,34.23,49,99,1.41,US,1732324819
227,lompoc,34.6391,-120.4579,63.01,72,0,5.75,US,1732325101
228,dudinka,69.4058,86.1778,-3.53,99,88,7.9,RU,1732325102
229,chipata,-13.6333,32.65,67.42,63,0,4.36,ZM,1732325104
230,sierra vista,31.5545,-110.3037,64.85,16,0,9.22,US,1732325105
231,kapuskasing,49.4169,-82.4331,35.69,100,100,8.05,CA,1732325108
232,khanty-mansiysk,61.0042,69.0019,19.51,86,40,13.42,RU,1732324864
233,nemuro,43.3236,145.575,42.03,63,100,21.59,JP,1732325110
234,togur,58.3631,82.8265,8.17,82,100,5.5,RU,1732325112
235,east london,-33.0153,27.9116,70.02,77,3,14.97,ZA,1732325113
236,bubaque,11.2833,-15.8333,82.92,68,50,11.95,GW,1732325116
237,krasnogorskoye,52.2953,86.1979,11.37,99,100,1.36,RU,1732325118
238,vilyuysk,63.7553,121.6247,9.82,95,100,10.56,RU,1732325119
239,princeville,45.7668,-61.2985,44.31,96,100,20.71,CA,1732325120
240,gorontalo,0.5412,123.0595,86.65,71,10,1.45,ID,1732325121
241,shatsk,54.0258,41.7119,33.44,69,100,16.93,RU,1732325123
242,puerto ayora,-0.7393,-90.3518,73.54,86,35,8.99,EC,1732325124
243,mirnyy,62.5353,113.9611,22.19,96,100,7.27,RU,1732325125
244,gadzhiyevo,69.2551,33.3362,27.95,76,37,31.7,RU,1732325127
245,arkhangel'sk,64.5401,40.5433,33.91,75,75,13.42,RU,1732325128
246,la rioja,42.25,-2.5,26.38,60,100,6.06,ES,1732325129
247,tazovsky,67.4667,78.7,10.13,93,100,16.58,RU,1732325130
248,sinop,41.7711,34.8709,52.47,82,3,16.98,TR,1732325132
249,rio san juan,19.6439,-70.0763,76.57,80,45,1.57,DO,1732325133
250,shetpe,44.1667,52.1167,41.85,63,64,10.02,KZ,1732325136
251,visby,57.6409,18.296,32.22,47,40,11.5,SE,1732324923
252,diu,20.7141,70.9822,69.21,41,87,5.46,IN,1732325139
253,petukhovo,55.0692,67.9019,22.6,83,5,12.19,RU,1732325140
254,alotau,-10.3069,150.4462,87.46,64,100,5.48,PG,1732325141
255,fuglafjordur,62.244,-6.814,32.05,64,64,3.6,FO,1732325143
256,orchard homes,46.8633,-114.0484,42.6,95,100,5.99,US,1732325144
257,preobrazheniye,42.9019,133.9064,31.24,46,1,6.31,RU,1732325145
258,cabo san lucas,22.8909,-109.9124,79.11,58,0,4.61,MX,1732324930
259,hithadhoo,-0.6,73.0833,82.53,77,22,15.37,MV,1732325148
260,holualoa,19.6228,-155.9522,78.84,83,0,9.22,US,1732325149
261,sarmiento,-45.5882,-69.07,59.7,43,0,19.22,AR,1732325150
262,ayvacik,39.6011,26.4047,61.79,82,83,20.56,TR,1732325151
263,sao jose da coroa grande,-8.8978,-35.1478,77.5,80,10,11.36,BR,1732325154
264,al kharijah,25.4514,30.5464,63.7,40,0,8.23,EG,1732325155
265,payette,44.0782,-116.9338,55.72,50,75,17.27,US,1732325157
266,tulun,54.5611,100.5792,11.07,62,98,16.02,RU,1732325159
267,penzance,50.1186,-5.5371,48.88,78,100,32.86,GB,1732325160
268,ndioum,16.5129,-14.6471,81.23,11,16,8.12,SN,1732325161
269,zheshart,62.0731,49.5733,30.78,79,100,12.1,RU,1732325163
270,spasskoye,44.6108,132.7969,23.95,66,12,4.21,RU,1732325165
271,barah,13.7,30.3667,67.23,22,0,10.29,SD,1732325167
272,ixtapa,20.7,-105.2,79.83,78,0,6.91,MX,1732325168
273,tyukhtet,56.5389,89.3011,-4.0,90,6,7.02,RU,1732325170
274,lihue,21.9789,-159.3672,78.46,60,0,8.05,US,1732325171
275,beli,7.8587,10.9719,72.64,43,16,2.33,NG,1732325172
276,sao felix do xingu,-6.6447,-51.995,78.03,70,63,2.64,BR,1732325173
277,colonia,50.9333,6.95,35.13,88,75,3.44,DE,1732324945
278,benghazi,32.1167,20.0667,70.12,69,0,8.28,LY,1732325176
279,mahibadhoo,3.7833,72.9667,81.73,72,100,2.64,MV,1732325177
280,sola,-13.8833,167.55,81.46,75,97,8.52,VU,1732325178
281,forster,-32.1667,152.5167,76.37,66,65,13.76,AU,1732325180
282,my tho,10.35,106.35,77.58,88,100,2.64,VN,1732325181
283,san andres,12.5847,-81.7006,84.22,70,20,17.27,CO,1732325182
284,inyonga,-6.7167,32.0667,64.94,91,99,3.22,TZ,1732325183
285,banda aceh,5.5577,95.3222,79.16,80,100,4.83,ID,1732325040
286,paragominas,-2.9667,-47.4833,78.91,53,3,4.63,BR,1732325186
287,turbat,26.0023,63.044,70.11,62,3,1.48,PK,1732325187
288,flying fish cove,-10.4217,105.6791,81.79,80,100,14.99,CX,1732325188
289,alofi,-19.0595,-169.9187,84.09,70,75,11.5,NU,1732325190
290,arteche,12.2645,125.4048,82.24,84,86,8.05,PH,1732325191
291,mili,6.0815,171.735,82.53,78,100,12.15,MH,1732325192
292,port augusta,-32.5,137.7667,80.08,53,100,4.59,AU,1732325193
293,labytnangi,66.6572,66.4183,17.74,97,99,6.51,RU,1732325194
294,bandon,51.7469,-8.7425,47.79,96,100,31.43,IE,1732325196
295,sur,22.5667,59.5289,76.6,59,26,4.14,OM,1732325198
296,ha tinh,18.3333,105.9,67.96,91,100,5.86,VN,1732325038
297,prince rupert,54.3161,-130.3201,46.09,42,65,23.02,CA,1732325028
298,kantunilkin,21.0917,-87.45,68.88,64,100,1.88,MX,1732325208
299,augusto correa,-1.0217,-46.635,77.97,75,100,4.14,BR,1732325210
300,kavieng,-2.5744,150.7967,85.62,67,43,4.23,PG,1732325211
301,traverse city,44.7631,-85.6206,44.67,89,100,11.5,US,1732325213
302,tangalle,6.024,80.7911,75.34,88,100,4.9,LK,1732325215
303,minas de marcona,-15.2119,-75.1103,60.31,80,97,11.41,PE,1732325217
304,cannonvale,-20.2833,148.7,78.19,69,15,17.25,AU,1732325219
305,petropavlovsk-kamchatsky,53.0452,158.6483,27.19,54,0,8.95,RU,1732325221
306,kankan,10.3854,-9.3057,69.96,31,5,1.86,GN,1732325223
307,al fqih ben calah,32.5009,-6.6906,63.32,43,0,8.99,MA,1732325225
308,daru,-9.0763,143.2092,84.04,77,98,11.68,PG,1732325227
309,salinopolis,-0.6136,-47.3561,81.43,71,75,11.68,BR,1732325228
310,solnechnyy,50.7214,136.6319,20.62,69,14,1.7,RU,1732325230
311,tayu,-6.5397,111.0518,86.68,66,98,3.91,ID,1732325232
312,privolzhsk,57.3808,41.2886,32.45,73,100,15.46,RU,1732325234
313,shambu,9.5667,37.1,51.17,83,16,1.5,ET,1732325236
314,island harbour,50.724,-1.2758,41.02,3,100,10.11,GB,1732325239
315,santo antonio,-6.3106,-35.4789,73.09,88,99,5.37,BR,1732325240
316,sosnovo-ozerskoye,52.5249,111.5418,10.31,98,100,1.41,RU,1732325242
317,pangkalanbuun,-2.6833,111.6167,81.37,86,100,2.68,ID,1732325246
318,bykovo,55.6361,38.0803,34.16,80,40,13.42,RU,1732325248
319,conakry,9.538,-13.6773,82.04,75,27,5.86,GN,1732325250
320,cozumel,20.5083,-86.9458,75.27,60,20,14.97,MX,1732325151
321,thunder bay,48.4001,-89.3168,35.58,87,75,5.75,CA,1732324996
322,manisa,38.8333,28.1667,53.53,80,52,6.17,TR,1732325257
323,zhongxing,33.7039,118.6792,48.96,63,0,8.95,CN,1732325259
324,tura,25.5198,90.2201,61.25,87,0,2.64,IN,1732325261
325,charters towers,-20.1,146.2667,85.55,42,1,15.21,AU,1732325262
326,basco,20.4487,121.9702,78.73,79,97,27.11,PH,1732325264
327,tan-tan,28.438,-11.1032,76.42,32,0,9.35,MA,1732325266
328,san jose del guaviare,2.5729,-72.6459,72.34,99,59,2.13,CO,1732325268
329,georgetown,5.4112,100.3354,84.13,77,20,4.61,MY,1732325270
330,oranjemund,-28.55,16.4333,58.57,96,39,9.08,NA,1732325273
331,shenjiamen,29.9576,122.298,59.67,63,14,12.15,CN,1732325276
332,gobabis,-22.45,18.9667,76.66,32,35,0.58,NA,1732325278
333,bathsheba,13.2167,-59.5167,83.01,89,40,16.11,BB,1732325280
334,moundsville,39.9203,-80.7431,44.55,93,100,15.17,US,1732325282
335,saint-joseph,-21.3667,55.6167,75.58,82,21,10.33,RE,1732325284
336,ormara,25.2088,64.6357,78.24,63,5,10.4,PK,1732325285
337,kirakira,-10.4544,161.9205,84.79,72,59,7.9,SB,1732325287
338,al muwayh,22.4333,41.7583,71.2,50,80,4.52,SA,1732325288
339,crane,31.3974,-102.3501,61.54,36,0,11.14,US,1732325292
340,pokhara,28.2333,83.9833,53.38,60,0,5.37,NP,1732325294
341,kalevala,65.2,31.1667,24.48,83,99,13.38,RU,1732325296
342,aur,8.1499,171.1687,82.96,81,92,19.89,MH,1732325298
343,mccomb,31.2438,-90.4531,49.87,57,0,3.44,US,1732325300
344,ancud,-41.8697,-73.8203,52.95,93,93,11.16,CL,1732325302
345,draganesti-olt,44.1667,24.5333,36.64,66,98,25.52,RO,1732325305
346,madalena,41.2162,-8.3345,59.58,91,70,3.38,PT,1732325307
347,nantucket,41.2835,-70.0995,48.15,93,100,11.95,US,1732325309
348,port saint john's,-31.6229,29.5448,72.59,86,9,11.23,ZA,1732325312
349,kill devil hills,36.0307,-75.676,46.98,57,100,16.11,US,1732325313
350,ekibastuz,51.6667,75.3667,16.84,87,23,7.83,KZ,1732325315
351,casas grandes,30.3667,-107.95,60.89,23,79,3.18,MX,1732325316
352,fortuna,40.5982,-124.1573,54.93,89,100,8.05,US,1732325317
353,villamontes,-21.25,-63.5,67.01,93,100,2.75,BO,1732325318
354,ginir,7.1333,40.7,57.97,96,100,3.36,ET,1732325319
355,eastham,41.8301,-69.9739,48.94,94,100,3.0,US,1732325321
356,'ain deheb,34.8422,1.547,45.27,90,0,3.6,DZ,1732325322
357,binzhou,37.3667,118.0167,44.71,62,0,7.14,CN,1732325323
358,yeniseysk,58.4497,92.1703,-1.14,86,99,10.87,RU,1732325324
359,kargopol',61.5071,38.9456,30.72,84,100,13.15,RU,1732325325
360,mubende,0.5606,31.39,59.31,99,76,1.1,UG,1732325327
361,buala,-8.145,159.5921,84.69,72,84,5.77,SB,1732325116
362,kathmandu,27.7167,85.3167,52.02,93,20,2.3,NP,1732325329
363,ugoofaaru,5.6667,73.0,79.7,81,100,6.24,MV,1732325331
364,birjand,32.8663,59.2211,36.07,75,0,9.22,IR,1732325332
365,taksimo,56.3444,114.8794,6.3,90,100,0.96,RU,1732325333
366,stolbovaya,55.2528,37.4853,33.06,89,100,14.76,RU,1732325334
367,armacao de buzios,-22.7469,-41.8817,68.16,87,100,15.59,BR,1732325335
368,mocajuba,-2.5842,-49.5072,81.84,64,2,4.68,BR,1732325191
369,dalandzadgad,43.5708,104.425,30.74,38,26,0.34,MN,1732325338
370,san patricio,28.017,-97.5169,64.35,48,2,7.83,US,1732325339
371,horta,38.5333,-28.6333,69.03,92,100,23.0,PT,1732325340
372,karratha,-20.7377,116.8463,86.59,39,26,4.16,AU,1732325342
373,monywa,22.1167,95.1333,69.42,84,0,4.76,MM,1732325343
374,mishkino,55.3389,63.9175,24.64,80,63,13.24,RU,1732325344
375,isangel,-19.55,169.2667,80.53,77,100,10.94,VU,1732325346
376,puerto santa,-8.9906,-78.6456,65.17,87,16,9.55,PE,1732325347
377,vila franca do campo,37.7167,-25.4333,68.41,99,100,13.96,PT,1732325348
378,sukumo,32.9333,132.7333,56.39,59,100,4.56,JP,1732325349
379,gering,41.8258,-103.6605,51.19,31,0,4.61,US,1732325351
380,bengkulu,-3.8004,102.2655,74.88,98,100,4.45,ID,1732325352
381,koping,59.514,15.9926,20.01,61,32,5.37,SE,1732325354
382,shakiso,5.75,38.9167,57.29,97,98,3.04,ET,1732325356
383,hell-ville,-13.4,48.2667,79.7,78,16,3.29,MG,1732325357
384,manistee,44.2445,-86.3242,44.94,53,100,9.22,US,1732325358
385,bardai,11.65,7.2333,64.33,20,95,8.57,NG,1732325360
386,sisimiut,66.9395,-53.6735,18.41,69,46,16.62,GL,1732325362
387,brookings,44.3114,-96.7984,33.8,83,0,4.61,US,1732325234
388,masterton,-40.9597,175.6575,54.07,75,100,3.51,NZ,1732325364
389,bocas del toro,9.3333,-82.25,76.68,91,100,9.19,PA,1732325365
390,vallenar,-28.5708,-70.7581,64.6,47,5,1.88,CL,1732325367
391,mek'ele,13.4967,39.4753,58.5,90,12,6.82,ET,1732325368
392,new norfolk,-42.7826,147.0587,77.72,29,100,3.15,AU,1732325369
393,beruniy,41.6911,60.7525,31.96,93,0,4.61,UZ,1732325371
394,krokek,58.6667,16.4,20.86,79,60,5.75,SE,1732325372
395,uige,-7.6087,15.0613,67.01,99,95,0.2,AO,1732325373
396,kihurio,-4.4667,38.0667,72.84,93,98,3.94,TZ,1732325374
397,berezovyy,51.6667,135.7,18.09,66,4,2.19,RU,1732325376
398,orahovac,42.3994,20.6547,34.36,87,100,8.61,XK,1732325377
399,katsuura,35.1333,140.3,55.72,51,21,16.84,JP,1732325378
400,tromso,69.6496,18.957,32.02,93,100,12.66,NO,1732325169
401,berdigestyakh,62.0989,126.6992,0.77,89,25,7.58,RU,1732325381
402,erenhot,43.6475,111.9767,33.1,52,71,8.03,CN,1732325382
403,la'ie,21.6477,-157.9253,84.16,63,99,4.0,US,1732325383
404,lazaro cardenas,17.9583,-102.2,79.56,83,11,2.17,MX,1732325385
405,menongue,-14.6585,17.691,62.67,89,100,2.57,AO,1732325386
406,nagqu,31.5,92.0,22.08,24,100,0.81,CN,1732325388
407,bakchar,57.0186,82.0711,10.36,83,100,4.79,RU,1732325390
408,afaahiti,-17.75,-149.2833,76.39,86,54,13.31,PF,1732325391
409,happy valley-goose bay,53.3168,-60.3315,28.71,93,75,3.44,CA,1732325287
410,onega,63.9061,38.1404,31.19,81,99,17.58,RU,1732325394
411,fauske,67.2588,15.3918,23.95,85,100,8.19,NO,1732325395
412,meulaboh,4.1363,96.1285,77.43,88,100,6.15,ID,1732325396
413,nicoya,10.1483,-85.452,73.65,90,100,5.44,CR,1732325397
414,nikolayevsk,50.0282,45.4595,35.78,85,100,6.29,RU,1732325399
415,shemysheyka,52.892,45.3928,33.24,84,100,12.46,RU,1732325400
416,wladyslawowo,54.7909,18.4009,33.94,66,100,22.84,PL,1732325401
417,raduzhny,62.0961,77.475,14.56,93,100,12.3,RU,1732325402
418,fort mcmurray,56.7268,-111.381,8.19,85,100,6.91,CA,1732325404
419,illizi,26.4833,8.4667,61.23,41,0,3.0,DZ,1732325405
420,vadso,70.0744,29.7487,32.16,86,75,35.68,NO,1732325407
421,ciudad lazaro cardenas,17.9583,-102.2,79.25,83,18,2.28,MX,1732325408
422,tambopata,-12.7333,-69.1833,72.68,99,89,2.98,PE,1732325409
423,kailua-kona,19.6406,-155.9956,83.28,75,0,9.22,US,1732325410
424,port douglas,-16.4833,145.4667,79.99,80,57,13.91,AU,1732325411
425,suntar,62.1444,117.6319,25.09,96,98,6.96,RU,1732325413
426,mana,5.6592,-53.7767,79.21,87,96,9.35,GF,1732325414
427,guerrero negro,27.9769,-114.0611,61.86,75,100,8.61,MX,1732325415
428,kolonia,50.9333,6.95,35.13,89,75,3.44,DE,1732325417
429,sona,45.4388,10.8255,33.85,60,0,11.48,IT,1732325418
430,wynyard,-41.0,145.7167,66.18,70,100,10.0,AU,1732325419
431,woolgoolga,-30.1106,153.2007,76.87,68,1,10.16,AU,1732325421
432,ambovombe,-25.1667,46.0833,73.22,77,1,5.48,MG,1732325423
433,lospalos,-8.5186,127.0025,89.46,45,48,7.96,TL,1732325426
434,timbuktu,16.7735,-3.0074,74.64,13,6,9.64,ML,1732325428
435,tanggu,39.0211,117.6469,44.56,58,58,8.57,CN,1732325429
436,brigantine,39.4101,-74.3646,39.4,93,100,10.36,US,1732325431
437,san luis,-33.295,-66.3356,74.95,42,0,9.42,AR,1732325435
438,kerikeri,-35.2268,173.9474,70.3,41,13,3.04,NZ,1732325437
439,dunedin,-45.8742,170.5036,51.8,80,99,7.0,NZ,1732325438
440,cut off,29.5427,-90.3381,54.0,59,0,4.85,US,1732325440
441,enriquillo,17.9,-71.2333,73.76,76,97,3.96,DO,1732325442
442,sanshui,23.1549,112.8916,62.35,68,100,7.78,CN,1732325444
443,usinsk,65.9939,57.5281,32.7,98,100,25.17,RU,1732325446
444,rio grande,-32.035,-52.0986,67.03,85,94,18.21,BR,1732325448
445,kavaratti,10.5669,72.642,81.46,77,100,11.65,IN,1732325450
446,ostersund,63.1792,14.6357,16.61,88,92,6.91,SE,1732325451
447,lagoa,39.05,-27.9833,65.41,89,100,30.62,PT,1732325453
448,luorong,24.4058,109.6086,63.0,60,2,7.56,CN,1732325455
449,motygino,58.1831,94.7592,-2.76,88,100,11.95,RU,1732325457
450,mitu,1.1983,-70.1733,72.09,99,98,2.3,CO,1732325459
451,papao,-17.75,-149.55,87.48,84,38,14.2,PF,1732325461
452,embi,48.8264,58.1442,30.74,66,98,8.5,KZ,1732325462
453,keflavik,64.0049,-22.5624,28.83,64,0,16.11,IS,1732325464
454,zhanibek,49.4167,46.85,40.14,94,100,9.37,KZ,1732325466
455,las heras,-46.5419,-68.9359,56.68,45,0,27.63,AR,1732325467
456,belleville,44.1788,-77.3705,42.53,93,75,5.75,CA,1732325275
457,labuan,5.2767,115.2417,88.16,70,20,1.14,MY,1732325470
458,sparti,37.0733,22.4297,64.94,93,100,1.95,GR,1732325471
459,saint-philippe,-21.3585,55.7679,76.96,85,40,16.53,RE,1732325472
460,arua,3.0201,30.9111,62.67,90,100,4.27,UG,1732325474
461,labrador city,52.9463,-66.9114,23.18,80,75,11.01,CA,1732325475
462,puerto san jose,13.9256,-90.8244,78.64,78,100,5.68,GT,1732325476
463,nianzishan,47.5167,122.8833,23.83,62,100,5.19,CN,1732325477
464,hilo,19.7297,-155.09,77.95,81,100,5.75,US,1732325478
465,lorengau,-2.0226,147.2712,84.47,72,99,4.76,PG,1732325480
466,ola,59.5833,151.2833,16.74,81,20,7.2,RU,1732325481
467,touros,-5.1989,-35.4608,77.16,78,22,9.22,BR,1732325482
468,tangzhai,34.4328,116.5911,50.34,49,21,10.16,CN,1732325484
469,port alberni,49.2413,-124.8028,45.93,93,99,10.0,CA,1732325458
470,simpang,-1.2667,104.0833,78.13,92,100,5.59,ID,1732325488
471,qamdo,31.1667,97.2333,28.65,39,100,8.61,CN,1732325489
472,nadym,65.5333,72.5167,16.12,94,97,17.0,RU,1732325490
473,trunovskoye,45.4878,42.1358,44.96,81,11,17.11,RU,1732325493
474,munsan,37.8594,126.785,45.3,35,34,4.76,KR,1732325494
475,severo-yeniseyskiy,60.3725,93.0408,-6.68,95,100,10.8,RU,1732325495
476,mil'kovo,55.6078,37.7956,33.94,68,100,16.71,RU,1732325496
477,sao paulo de olivenca,-3.3783,-68.8725,73.71,99,100,0.96,BR,1732325498
478,hadibu,12.65,54.0333,76.96,75,80,8.93,YE,1732325499
479,pangai,-19.8,-174.35,78.91,83,40,10.36,TO,1732325500
480,novodvinsk,64.4165,40.8122,33.55,84,100,14.45,RU,1732325502
481,jumla,29.2747,82.1838,38.52,48,0,4.56,NP,1732325504
482,longquan,24.6719,102.1613,56.3,88,24,4.07,CN,1732325505
483,phalaborwa,-23.943,31.1411,76.84,52,95,0.63,ZA,1732325507
484,nizhnesortymskiy,62.4397,71.7603,21.16,91,63,16.8,RU,1732325509
485,ponta delgada,37.7333,-25.6667,68.72,94,75,12.66,PT,1732325511
486,cova figueira,14.8905,-24.2934,67.5,74,53,7.65,CV,1732325513
487,paradip garh,20.3167,86.6167,69.31,68,100,7.27,IN,1732325515
488,torghay,49.6339,63.4981,27.81,72,1,7.38,KZ,1732325516
489,vila velha,-20.3297,-40.2925,73.35,98,75,12.66,BR,1732325518
490,porecatu,-22.7558,-51.3792,76.93,63,100,10.58,BR,1732325519
491,ketchikan,55.3422,-131.6461,44.58,48,0,12.66,US,1732325521
492,tete,-16.1564,33.5867,82.49,57,0,0.0,MZ,1732325522
493,sukhobezvodnoye,57.0491,44.8891,31.39,77,100,9.69,RU,1732325524
494,aginskoye,51.1,114.53,14.97,97,100,3.51,RU,1732325525
495,atakpame,7.5333,1.1333,73.54,69,4,1.99,TG,1732325526
496,kurmuk,10.55,34.2833,74.01,64,50,2.24,SD,1732325527
497,komsomolets,53.7453,62.0708,21.78,86,81,9.93,KZ,1732325528
498,trecate,45.4348,8.7368,34.77,63,0,6.4,IT,1732325530
499,north bend,43.4065,-124.2243,51.71,87,0,5.75,US,1732325304
500,mwinilunga,-11.7358,24.4293,62.83,94,91,3.29,ZM,1732325532
501,gifford,27.6753,-80.4092,55.04,73,0,5.75,US,1732325533
502,kalymnos,36.95,26.9833,69.33,88,20,14.97,GR,1732325535
503,vel'sk,61.0701,42.0983,31.17,72,100,13.27,RU,1732325536
504,iskateley,67.6803,53.1512,31.84,91,100,18.48,RU,1732325537
505,pustoshka,56.3355,29.369,30.96,76,100,2.06,RU,1732325538
506,portland,45.5234,-122.6762,53.02,83,100,11.99,US,1732325403
507,lodja,-3.4833,23.4333,69.1,100,100,1.3,CD,1732325541
508,urengoy,65.9667,78.3667,11.44,94,100,17.94,RU,1732325542
509,livingston,55.9029,-3.5226,35.11,88,100,3.85,GB,1732325544
510,kourou,5.1552,-52.6478,76.91,93,79,5.77,GF,1732325545
511,cururupu,-1.8283,-44.8683,73.63,88,1,2.51,BR,1732325546
512,faya-largeau,17.9257,19.1043,67.46,27,0,13.67,TD,1732325547
513,kamaishi,39.2667,141.8833,49.46,47,13,9.06,JP,1732325550
514,sechura,-5.5569,-80.8222,66.04,83,56,12.37,PE,1732325551
515,sharypovo,55.5403,89.2008,0.68,93,20,2.3,RU,1732325553
516,vanino,49.0869,140.2543,26.38,50,13,8.46,RU,1732325554
517,birao,10.2849,22.7882,65.43,34,37,4.83,CF,1732325555
518,loja,-3.9931,-79.2042,57.2,86,99,0.43,EC,1732325540
519,las lomitas,-24.7096,-60.593,76.21,57,44,5.1,AR,1732325558
520,itamaraca,-7.7478,-34.8256,76.33,83,45,8.43,BR,1732325560
521,richards bay,-28.783,32.0377,71.51,94,1,4.14,ZA,1732325561
522,porto novo,6.4965,2.6036,84.02,85,77,3.6,BJ,1732325562
523,nakamura,32.9833,132.9333,58.77,50,100,3.67,JP,1732325563
524,mabaruma,8.2,-59.7833,75.49,93,10,1.97,GY,1732325565
525,simenqian,27.4872,110.8861,52.74,75,100,3.06,CN,1732325567
526,junnar,19.2,73.8833,63.3,63,100,5.19,IN,1732325569
527,sangin,32.0728,64.8359,55.38,41,0,1.66,AF,1732325570
528,shantobe,52.4581,68.1839,10.13,96,41,5.64,KZ,1732325571
529,tabua,40.3327,-8.0141,52.18,94,84,4.99,PT,1732325573
530,xam nua,20.4197,104.0439,65.93,68,39,3.67,LA,1732325574
531,wewak,-3.5534,143.6268,83.41,77,67,5.95,PG,1732325577
532,hakkari,37.5833,44.1667,24.58,100,40,0.0,TR,1732325579
533,dokkum,53.3222,5.997,39.18,80,75,13.8,NL,1732325580
534,tarawa,1.419,172.984,89.69,62,75,16.11,KI,1732325582
535,mugumu,-1.85,34.7,62.73,92,98,1.77,TZ,1732325583
536,monrovia,6.3005,-10.7969,78.78,84,10,4.97,LR,1732325571
537,bela vista,-22.1089,-56.5211,78.55,75,83,2.48,BR,1732325586
538,posto fiscal rolim de moura,-13.0833,-62.2667,72.97,98,100,1.23,BR,1732325587
539,kashmar,35.2383,58.4656,50.86,55,0,3.87,IR,1732325588
540,petawawa,45.9001,-77.3328,40.78,88,100,1.99,CA,1732325590
541,hede,33.7681,120.2517,55.53,48,4,8.7,CN,1732325591
542,vega de alatorre,20.0333,-96.6333,72.99,63,73,3.65,MX,1732325592
543,rojhan,28.6868,69.9534,66.13,36,0,0.85,PK,1732325593
544,kabinda,-6.1333,24.4833,66.54,98,100,3.13,CD,1732325595
545,muscat,23.6139,58.5922,74.71,55,0,0.89,OM,1732325596
546,greenville,35.6127,-77.3663,45.12,52,0,5.75,US,1732325554
547,el nido,11.1858,119.3956,89.15,70,87,16.8,PH,1732325598
548,verkhnevilyuysk,63.4453,120.3167,20.23,96,100,6.11,RU,1732325600
549,alo,6.5486,4.2686,77.85,84,45,1.34,NG,1732325601
550,ishigaki,24.3448,124.1572,75.33,64,75,18.41,JP,1732325602
551,semenov,56.7875,44.493,31.53,78,89,9.62,RU,1732325603
552,san isidro de curuguaty,-24.5167,-55.7,74.43,86,10,3.62,PY,1732325605
553,strezhevoy,60.7333,77.5889,16.93,91,100,11.65,RU,1732325606
554,minab,27.1467,57.0801,74.62,74,34,4.65,IR,1732325607
555,kirensk,57.7853,108.1119,22.19,89,61,11.63,RU,1732325608
556,kaga bandoro,6.9896,19.1874,67.68,40,37,1.66,CF,1732325610
